{
  "source": "GeoNames fulltext search for 'National Park/'",
  "generatedFrom": 3270,
  "generatedCount": 1811,
  "parks": [
    {
      "name": "Butrint National Park",
      "country": "Albania",
      "locality": "AL.20",
      "featureClass": "park",
      "lat": 39.759425,
      "lng": 20.03467,
      "continent": "Europe / Asia"
    },
    {
      "name": "Karaburun-Sazan National Marine Park",
      "country": "Albania",
      "locality": "AL.27",
      "featureClass": "nature reserve",
      "lat": 40.43891,
      "lng": 19.30409,
      "continent": "Europe / Asia"
    },
    {
      "name": "Llogara National Park",
      "country": "Albania",
      "locality": "Vlor\u00eb County, Bashkia Vlor\u00eb > Bashkia e Orikumit",
      "featureClass": "park",
      "lat": 40.21362,
      "lng": 19.58459,
      "continent": "Europe / Asia"
    },
    {
      "name": "Shebenik-Jabllanic\u00eb National Park",
      "country": "Albania",
      "locality": "Elbasan County, Librazhd District",
      "featureClass": "forest reserve",
      "lat": 41.203056,
      "lng": 20.500556,
      "continent": "Europe / Asia"
    },
    {
      "name": "Valbona Valley National Park",
      "country": "Albania",
      "locality": "Kuk\u00ebs County, Tropoj\u00eb District",
      "featureClass": "valley",
      "lat": 42.430528,
      "lng": 19.873881,
      "continent": "Europe / Asia"
    },
    {
      "name": "Belzma National Park",
      "country": "Algeria",
      "locality": "Batna, Batna District > Oued Chaaba",
      "featureClass": "park",
      "lat": 35.583333,
      "lng": 6.033333,
      "continent": "Africa"
    },
    {
      "name": "Tassili n'Ajjer National Park",
      "country": "Algeria",
      "locality": "Illizi, Illizi > Illizi",
      "featureClass": "cave(s)",
      "lat": 25.7965,
      "lng": 8.15509,
      "continent": "Africa"
    },
    {
      "name": "Fagatele Bay National Marine Sanctuary",
      "country": "American Samoa",
      "locality": "Western District",
      "featureClass": "park",
      "lat": -14.368889,
      "lng": -170.763056,
      "continent": "Islands / Mixed"
    },
    {
      "name": "Leala Shoreline National Natural Landmark",
      "country": "American Samoa",
      "locality": "Western District",
      "featureClass": "park",
      "lat": -14.365278,
      "lng": -170.775278,
      "continent": "Islands / Mixed"
    },
    {
      "name": "Rose Atoll National Wildlife Refuge",
      "country": "American Samoa",
      "locality": "Rose Island",
      "featureClass": "park",
      "lat": -14.545293,
      "lng": -168.155926,
      "continent": "Islands / Mixed"
    },
    {
      "name": "Parque Nacional da Cameia",
      "country": "Angola",
      "locality": "Moxico",
      "featureClass": "park",
      "lat": -11.822652,
      "lng": 21.753612,
      "continent": "Africa"
    },
    {
      "name": "Parque Nacional da Mupa",
      "country": "Angola",
      "locality": "Cunene",
      "featureClass": "park",
      "lat": -15.653559,
      "lng": 15.653559,
      "continent": "Africa"
    },
    {
      "name": "Parque Nacional da Qui\u00e7ama",
      "country": "Angola",
      "locality": "Bengo",
      "featureClass": "park",
      "lat": -9.687758,
      "lng": 13.744886,
      "continent": "Africa"
    },
    {
      "name": "Parque Nacional do Bicuari",
      "country": "Angola",
      "locality": "Hu\u00edla",
      "featureClass": "park",
      "lat": -15.355582,
      "lng": 14.773276,
      "continent": "Africa"
    },
    {
      "name": "Parque Nacional do Iona",
      "country": "Angola",
      "locality": "Namibe",
      "featureClass": "park",
      "lat": -16.686918,
      "lng": 12.228724,
      "continent": "Africa"
    },
    {
      "name": "Barit\u00fa National Park",
      "country": "Argentina",
      "locality": "Salta",
      "featureClass": "park",
      "lat": -22.537481,
      "lng": -64.589853,
      "continent": "South America"
    },
    {
      "name": "Iguaz\u00fa National Park",
      "country": "Argentina",
      "locality": "Misiones",
      "featureClass": "park",
      "lat": -25.705079,
      "lng": -54.24829,
      "continent": "South America"
    },
    {
      "name": "Los Alerces National Park",
      "country": "Argentina",
      "locality": "Chubut, Departamento de Futaleuf\u00fa",
      "featureClass": "park",
      "lat": -42.94073,
      "lng": -71.62976,
      "continent": "South America"
    },
    {
      "name": "Los Arrayanes National Park",
      "country": "Argentina",
      "locality": "Neuquen",
      "featureClass": "nature reserve",
      "lat": -40.830437,
      "lng": -71.626053,
      "continent": "South America"
    },
    {
      "name": "Los Glaciares National Park",
      "country": "Argentina",
      "locality": "Santa Cruz",
      "featureClass": "park",
      "lat": -50.330509,
      "lng": -73.234108,
      "continent": "Islands / Mixed"
    },
    {
      "name": "Monumento Natural Los Bosques Petrificados",
      "country": "Argentina",
      "locality": "Santa Cruz",
      "featureClass": "park",
      "lat": -47.713968,
      "lng": -68.072598,
      "continent": "South America"
    },
    {
      "name": "Parque Nacional Finca El Rey",
      "country": "Argentina",
      "locality": "Salta",
      "featureClass": "park",
      "lat": -24.691536,
      "lng": -64.615583,
      "continent": "South America"
    },
    {
      "name": "Parque Nacional Laguna Blanca",
      "country": "Argentina",
      "locality": "Neuquen",
      "featureClass": "park",
      "lat": -39.033333,
      "lng": -70.4,
      "continent": "South America"
    },
    {
      "name": "Parque Nacional Lan\u00edn",
      "country": "Argentina",
      "locality": "Neuquen",
      "featureClass": "park",
      "lat": -39.916667,
      "lng": -71.416667,
      "continent": "South America"
    },
    {
      "name": "Parque Nacional Nahuel Huap\u00ed",
      "country": "Argentina",
      "locality": "Rio Negro",
      "featureClass": "park",
      "lat": -41.0,
      "lng": -71.5,
      "continent": "South America"
    },
    {
      "name": "Parque Nacional Perito Francisco P. Moreno",
      "country": "Argentina",
      "locality": "Santa Cruz",
      "featureClass": "park",
      "lat": -47.932205,
      "lng": -72.242344,
      "continent": "South America"
    },
    {
      "name": "Parque Nacional Pilcomayo",
      "country": "Argentina",
      "locality": "Formosa",
      "featureClass": "park",
      "lat": -25.2,
      "lng": -58.0,
      "continent": "South America"
    },
    {
      "name": "Parque Nacional Tierra del Fuego",
      "country": "Argentina",
      "locality": "Tierra del Fuego",
      "featureClass": "park",
      "lat": -54.666667,
      "lng": -68.5,
      "continent": "Islands / Mixed"
    },
    {
      "name": "Parque Nacional del Chaco",
      "country": "Argentina",
      "locality": "Chaco",
      "featureClass": "park",
      "lat": -26.833333,
      "lng": -59.666667,
      "continent": "South America"
    },
    {
      "name": "Talampaya National Park",
      "country": "Argentina",
      "locality": "La Rioja, Departamento de Coronel Felipe Varela",
      "featureClass": "park",
      "lat": -29.883552,
      "lng": -67.929705,
      "continent": "South America"
    },
    {
      "name": "Abercrombie River National Park",
      "country": "Australia",
      "locality": "New South Wales, Oberon",
      "featureClass": "park",
      "lat": -34.098499,
      "lng": 149.667893,
      "continent": "Oceania"
    },
    {
      "name": "Alexander Morrison National Park",
      "country": "Australia",
      "locality": "Western Australia, Coorow",
      "featureClass": "park",
      "lat": -30.050989,
      "lng": 115.549004,
      "continent": "Oceania"
    },
    {
      "name": "Alfred National Park",
      "country": "Australia",
      "locality": "Victoria, East Gippsland",
      "featureClass": "park",
      "lat": -37.558193,
      "lng": 149.359589,
      "continent": "Oceania"
    },
    {
      "name": "Alligator Gorge National Park",
      "country": "Australia",
      "locality": "South Australia, Mount Remarkable",
      "featureClass": "park",
      "lat": -32.78788,
      "lng": 138.069458,
      "continent": "Oceania"
    },
    {
      "name": "Alpine National Park",
      "country": "Australia",
      "locality": "Victoria, Alpine",
      "featureClass": "park",
      "lat": -36.95,
      "lng": 147.216672,
      "continent": "Oceania"
    },
    {
      "name": "Alpine National Park Bogong Unit",
      "country": "Australia",
      "locality": "Victoria, East Gippsland",
      "featureClass": "park",
      "lat": -36.927082,
      "lng": 147.282089,
      "continent": "Oceania"
    },
    {
      "name": "Alpine National Park Cobberas Tingaringy Unit",
      "country": "Australia",
      "locality": "Victoria, East Gippsland",
      "featureClass": "park",
      "lat": -36.948471,
      "lng": 148.18042,
      "continent": "Oceania"
    },
    {
      "name": "Alpine National Park Dartmouth Unit",
      "country": "Australia",
      "locality": "Victoria, Towong",
      "featureClass": "park",
      "lat": -36.664028,
      "lng": 147.672638,
      "continent": "Oceania"
    },
    {
      "name": "Alpine National Park Wonnangatta Moroka Unit",
      "country": "Australia",
      "locality": "Victoria, Wellington",
      "featureClass": "park",
      "lat": -37.285137,
      "lng": 146.775696,
      "continent": "Oceania"
    },
    {
      "name": "Alton National Park",
      "country": "Australia",
      "locality": "Queensland, Shire of Balonne",
      "featureClass": "park",
      "lat": -27.994816,
      "lng": 149.326691,
      "continent": "Oceania"
    },
    {
      "name": "Amamoor National Park",
      "country": "Australia",
      "locality": "Queensland, Gympie Regional Council",
      "featureClass": "park",
      "lat": -26.323891,
      "lng": 152.645554,
      "continent": "Oceania"
    },
    {
      "name": "Angourie National Park",
      "country": "Australia",
      "locality": "New South Wales, Clarence Valley",
      "featureClass": "park",
      "lat": -29.815201,
      "lng": 153.267899,
      "continent": "Oceania"
    },
    {
      "name": "Annan River (Yuku Baja-Mulika) National Park",
      "country": "Australia",
      "locality": "Queensland, Cook Shire",
      "featureClass": "nature reserve",
      "lat": -15.62295,
      "lng": 145.28097,
      "continent": "Oceania"
    },
    {
      "name": "Annan River National Park",
      "country": "Australia",
      "locality": "Queensland, Cook Shire",
      "featureClass": "park",
      "lat": -15.5576,
      "lng": 145.23231,
      "continent": "Oceania"
    },
    {
      "name": "Apsley Gorge National Park",
      "country": "Australia",
      "locality": "New South Wales, Walcha",
      "featureClass": "park",
      "lat": -31.098499,
      "lng": 151.901199,
      "continent": "Oceania"
    },
    {
      "name": "Ashmore Reef Marine Park",
      "country": "Australia",
      "locality": "",
      "featureClass": "park",
      "lat": -12.240465,
      "lng": 123.093305,
      "continent": "Oceania"
    },
    {
      "name": "Astrebla Downs National Park",
      "country": "Australia",
      "locality": "Queensland, Diamantina",
      "featureClass": "park",
      "lat": -24.212376,
      "lng": 140.567871,
      "continent": "Oceania"
    },
    {
      "name": "Auburn River National Park",
      "country": "Australia",
      "locality": "Queensland, North Burnett",
      "featureClass": "park",
      "lat": -25.720085,
      "lng": 151.053024,
      "continent": "Oceania"
    },
    {
      "name": "Avon Valley National Park",
      "country": "Australia",
      "locality": "Western Australia, Toodyay",
      "featureClass": "park",
      "lat": -31.577379,
      "lng": 116.263702,
      "continent": "Oceania"
    },
    {
      "name": "Badgingarra National Park",
      "country": "Australia",
      "locality": "Western Australia, Dandaragan",
      "featureClass": "park",
      "lat": -30.41238,
      "lng": 115.421997,
      "continent": "Oceania"
    },
    {
      "name": "Bald Rock National Park",
      "country": "Australia",
      "locality": "New South Wales, Tenterfield Municipality",
      "featureClass": "park",
      "lat": -28.85261,
      "lng": 152.05627,
      "continent": "Oceania"
    },
    {
      "name": "Ban Ban National Park",
      "country": "Australia",
      "locality": "Queensland, Gympie Regional Council",
      "featureClass": "park",
      "lat": -25.834167,
      "lng": 151.963059,
      "continent": "Oceania"
    },
    {
      "name": "Barnard Island Group National Park",
      "country": "Australia",
      "locality": "Queensland, Cassowary Coast",
      "featureClass": "park",
      "lat": -17.737627,
      "lng": 146.159424,
      "continent": "Oceania"
    },
    {
      "name": "Barranyi National Park",
      "country": "Australia",
      "locality": "Northern Territory, Roper Gulf",
      "featureClass": "park",
      "lat": -15.584153,
      "lng": 136.868073,
      "continent": "Oceania"
    },
    {
      "name": "Barrington Tops National Park",
      "country": "Australia",
      "locality": "New South Wales, Mid-Coast",
      "featureClass": "park",
      "lat": -31.900698,
      "lng": 151.533717,
      "continent": "Oceania"
    },
    {
      "name": "Barrington Tops National Park",
      "country": "Australia",
      "locality": "New South Wales, Mid-Coast",
      "featureClass": "park",
      "lat": -32.0485,
      "lng": 151.501205,
      "continent": "Oceania"
    },
    {
      "name": "Barron Gorge National Park",
      "country": "Australia",
      "locality": "Queensland, Cairns",
      "featureClass": "park",
      "lat": -16.873745,
      "lng": 145.661377,
      "continent": "Oceania"
    },
    {
      "name": "Barron Gorge National Park",
      "country": "Australia",
      "locality": "Queensland, Mareeba",
      "featureClass": "park",
      "lat": -16.97841,
      "lng": 145.60232,
      "continent": "Oceania"
    },
    {
      "name": "Baw Baw National Park",
      "country": "Australia",
      "locality": "Victoria, Baw Baw",
      "featureClass": "park",
      "lat": -37.871807,
      "lng": 146.319031,
      "continent": "Oceania"
    },
    {
      "name": "Beedelup National Park",
      "country": "Australia",
      "locality": "Western Australia, Manjimup",
      "featureClass": "park",
      "lat": -34.406391,
      "lng": 115.876701,
      "continent": "Oceania"
    },
    {
      "name": "Beelu National Park",
      "country": "Australia",
      "locality": "Western Australia, Mundaring",
      "featureClass": "park",
      "lat": -31.94389,
      "lng": 116.142502,
      "continent": "Oceania"
    },
    {
      "name": "Belair National Park",
      "country": "Australia",
      "locality": "South Australia, Mitcham",
      "featureClass": "park",
      "lat": -35.01249,
      "lng": 138.64849,
      "continent": "Oceania"
    },
    {
      "name": "Bellinger River National Park",
      "country": "Australia",
      "locality": "New South Wales, Bellingen",
      "featureClass": "park",
      "lat": -30.415199,
      "lng": 152.701202,
      "continent": "Oceania"
    },
    {
      "name": "Ben Boyd National Park",
      "country": "Australia",
      "locality": "New South Wales, Bega Valley",
      "featureClass": "park",
      "lat": -37.165199,
      "lng": 150.001205,
      "continent": "Oceania"
    },
    {
      "name": "Ben Halls Gap National Park",
      "country": "Australia",
      "locality": "New South Wales, Tamworth Municipality",
      "featureClass": "park",
      "lat": -31.6152,
      "lng": 151.217896,
      "continent": "Oceania"
    },
    {
      "name": "Ben Lomond National Park",
      "country": "Australia",
      "locality": "Tasmania, Northern Midlands",
      "featureClass": "park",
      "lat": -41.560001,
      "lng": 147.669998,
      "continent": "Oceania"
    },
    {
      "name": "Benarkin National Park",
      "country": "Australia",
      "locality": "Queensland, Somerset",
      "featureClass": "park",
      "lat": -26.760555,
      "lng": 152.170563,
      "continent": "Oceania"
    },
    {
      "name": "Bendidee National Park",
      "country": "Australia",
      "locality": "Queensland, Goondiwindi",
      "featureClass": "park",
      "lat": -28.298697,
      "lng": 150.51889,
      "continent": "Oceania"
    },
    {
      "name": "Beninbi National Park",
      "country": "Australia",
      "locality": "Queensland, North Burnett",
      "featureClass": "park",
      "lat": -25.8825,
      "lng": 151.74028,
      "continent": "Oceania"
    },
    {
      "name": "Berowra Valley National Park",
      "country": "Australia",
      "locality": "New South Wales, Hornsby Shire",
      "featureClass": "park",
      "lat": -33.64213,
      "lng": 151.09926,
      "continent": "Oceania"
    },
    {
      "name": "Big Heath National Park",
      "country": "Australia",
      "locality": "South Australia, Naracoorte and Lucindale",
      "featureClass": "park",
      "lat": -37.108021,
      "lng": 140.573196,
      "continent": "Oceania"
    },
    {
      "name": "Bingera National Park",
      "country": "Australia",
      "locality": "Queensland, Bundaberg",
      "featureClass": "park",
      "lat": -25.043888,
      "lng": 152.306397,
      "continent": "Oceania"
    },
    {
      "name": "Black Mountain National Park",
      "country": "Australia",
      "locality": "Queensland, Cook Shire",
      "featureClass": "park",
      "lat": -15.66271,
      "lng": 145.24509,
      "continent": "Oceania"
    },
    {
      "name": "Blackbraes National Park",
      "country": "Australia",
      "locality": "Queensland, Etheridge",
      "featureClass": "park",
      "lat": -19.229027,
      "lng": 144.042816,
      "continent": "Oceania"
    },
    {
      "name": "Blackdown Tableland National Park",
      "country": "Australia",
      "locality": "Queensland, Central Highlands",
      "featureClass": "park",
      "lat": -23.821112,
      "lng": 149.100845,
      "continent": "Oceania"
    },
    {
      "name": "Blackwood National Park",
      "country": "Australia",
      "locality": "Queensland, Charters Towers",
      "featureClass": "park",
      "lat": -21.460112,
      "lng": 146.71611,
      "continent": "Oceania"
    },
    {
      "name": "Bladensburg N.P.",
      "country": "Australia",
      "locality": "Queensland, Winton",
      "featureClass": "park",
      "lat": -22.652634,
      "lng": 143.057282,
      "continent": "Oceania"
    },
    {
      "name": "Blue Lake National Park",
      "country": "Australia",
      "locality": "Queensland, Redland",
      "featureClass": "park",
      "lat": -27.52171,
      "lng": 153.47736,
      "continent": "Oceania"
    },
    {
      "name": "Blue Mountains National Park",
      "country": "Australia",
      "locality": "New South Wales, Blue Mountains Municipality",
      "featureClass": "park",
      "lat": -33.61751,
      "lng": 150.45591,
      "continent": "Oceania"
    },
    {
      "name": "Blue Mountains National Park Office",
      "country": "Australia",
      "locality": "New South Wales, Blue Mountains Municipality",
      "featureClass": "park headquarters",
      "lat": -33.70618,
      "lng": 150.31063,
      "continent": "Oceania"
    },
    {
      "name": "Bogong National Park",
      "country": "Australia",
      "locality": "Victoria, East Gippsland",
      "featureClass": "park",
      "lat": -36.86375,
      "lng": 147.34903,
      "continent": "Oceania"
    },
    {
      "name": "Bongil Bongil National Park",
      "country": "Australia",
      "locality": "New South Wales, Coffs Harbour",
      "featureClass": "park",
      "lat": -30.38768,
      "lng": 153.08118,
      "continent": "Oceania"
    },
    {
      "name": "Boodjamulla (Lawn Hill) National Park",
      "country": "Australia",
      "locality": "Queensland, Burke",
      "featureClass": "park",
      "lat": -18.769722,
      "lng": 138.387222,
      "continent": "Oceania"
    },
    {
      "name": "Boonoo Boonoo National Park",
      "country": "Australia",
      "locality": "New South Wales, Tenterfield Municipality",
      "featureClass": "park",
      "lat": -28.848499,
      "lng": 152.167893,
      "continent": "Oceania"
    },
    {
      "name": "Boorabbin National Park",
      "country": "Australia",
      "locality": "Western Australia, Coolgardie",
      "featureClass": "park",
      "lat": -31.215389,
      "lng": 120.190399,
      "continent": "Oceania"
    },
    {
      "name": "Booti Booti National Park",
      "country": "Australia",
      "locality": "New South Wales, Mid-Coast",
      "featureClass": "park",
      "lat": -32.281799,
      "lng": 152.517899,
      "continent": "Oceania"
    },
    {
      "name": "Border Ranges National Park",
      "country": "Australia",
      "locality": "New South Wales, Kyogle",
      "featureClass": "park",
      "lat": -28.34445,
      "lng": 153.0378,
      "continent": "Oceania"
    },
    {
      "name": "Botany Bay National Park",
      "country": "Australia",
      "locality": "New South Wales, Sutherland Shire",
      "featureClass": "park",
      "lat": -34.02056,
      "lng": 151.22472,
      "continent": "Oceania"
    },
    {
      "name": "Bouddi National Park",
      "country": "Australia",
      "locality": "New South Wales, Central Coast",
      "featureClass": "park",
      "lat": -33.498501,
      "lng": 151.417893,
      "continent": "Oceania"
    },
    {
      "name": "Bowling Green Bay National Park",
      "country": "Australia",
      "locality": "Queensland, Burdekin",
      "featureClass": "park",
      "lat": -19.464006,
      "lng": 147.172485,
      "continent": "Oceania"
    },
    {
      "name": "Brampton Island National Park",
      "country": "Australia",
      "locality": "Queensland, Mackay",
      "featureClass": "park",
      "lat": -20.793156,
      "lng": 149.284424,
      "continent": "Oceania"
    },
    {
      "name": "Bribie Island National Park",
      "country": "Australia",
      "locality": "Queensland, Moreton Bay",
      "featureClass": "park",
      "lat": -26.971739,
      "lng": 153.100784,
      "continent": "Oceania"
    },
    {
      "name": "Brindabella National Park",
      "country": "Australia",
      "locality": "New South Wales, Yass Valley",
      "featureClass": "park",
      "lat": -35.25125,
      "lng": 148.776568,
      "continent": "Oceania"
    },
    {
      "name": "Brisbane Ranges National Park",
      "country": "Australia",
      "locality": "Victoria, Greater Geelong",
      "featureClass": "park",
      "lat": -37.824306,
      "lng": 144.274307,
      "continent": "Oceania"
    },
    {
      "name": "Brisbane Water National Park",
      "country": "Australia",
      "locality": "New South Wales, Central Coast",
      "featureClass": "park",
      "lat": -33.459599,
      "lng": 151.301193,
      "continent": "Oceania"
    },
    {
      "name": "Broad Sound Islands National Park",
      "country": "Australia",
      "locality": "Queensland, Livingstone",
      "featureClass": "park",
      "lat": -21.998705,
      "lng": 149.870255,
      "continent": "Oceania"
    },
    {
      "name": "Broadwater National Park",
      "country": "Australia",
      "locality": "New South Wales, Richmond Valley",
      "featureClass": "park",
      "lat": -29.065201,
      "lng": 153.417893,
      "continent": "Oceania"
    },
    {
      "name": "Brockman National Park",
      "country": "Australia",
      "locality": "Western Australia, Manjimup",
      "featureClass": "park",
      "lat": -34.511589,
      "lng": 115.999001,
      "continent": "Oceania"
    },
    {
      "name": "Brook Islands National Park",
      "country": "Australia",
      "locality": "Queensland, Cassowary Coast",
      "featureClass": "park",
      "lat": -18.142626,
      "lng": 146.284439,
      "continent": "Oceania"
    },
    {
      "name": "Budawang National Park",
      "country": "Australia",
      "locality": "New South Wales, Shoalhaven Shire",
      "featureClass": "park",
      "lat": -35.498501,
      "lng": 150.001205,
      "continent": "Oceania"
    },
    {
      "name": "Budderoo National Park",
      "country": "Australia",
      "locality": "New South Wales, Kiama",
      "featureClass": "park",
      "lat": -34.648499,
      "lng": 150.701202,
      "continent": "Oceania"
    },
    {
      "name": "Bulburin National Park",
      "country": "Australia",
      "locality": "Queensland, Gladstone",
      "featureClass": "park",
      "lat": -24.600279,
      "lng": 151.52916,
      "continent": "Oceania"
    },
    {
      "name": "Bulga National Park",
      "country": "Australia",
      "locality": "Victoria, Wellington",
      "featureClass": "park",
      "lat": -38.420971,
      "lng": 146.576248,
      "continent": "Oceania"
    },
    {
      "name": "Bulleringa National Park",
      "country": "Australia",
      "locality": "Queensland, Mareeba",
      "featureClass": "park",
      "lat": -17.60607,
      "lng": 143.89069,
      "continent": "Oceania"
    },
    {
      "name": "Bundjalung National Park",
      "country": "Australia",
      "locality": "New South Wales, Clarence Valley",
      "featureClass": "park",
      "lat": -29.3318,
      "lng": 153.334595,
      "continent": "Oceania"
    },
    {
      "name": "Bundjalung National Park",
      "country": "Australia",
      "locality": "New South Wales, Richmond Valley",
      "featureClass": "park",
      "lat": -29.182322,
      "lng": 153.37384,
      "continent": "Oceania"
    },
    {
      "name": "Bunya Mountains National Park",
      "country": "Australia",
      "locality": "Queensland, South Burnett",
      "featureClass": "park",
      "lat": -26.858334,
      "lng": 151.60611,
      "continent": "Oceania"
    },
    {
      "name": "Bunya Mountains National Park (Recovery)",
      "country": "Australia",
      "locality": "Queensland, South Burnett",
      "featureClass": "nature reserve",
      "lat": -26.826668,
      "lng": 151.582214,
      "continent": "Oceania"
    },
    {
      "name": "Burleigh Head National Park",
      "country": "Australia",
      "locality": "Queensland, Gold Coast",
      "featureClass": "park",
      "lat": -28.093956,
      "lng": 153.458298,
      "continent": "Oceania"
    },
    {
      "name": "Burrendong Dam National Park",
      "country": "Australia",
      "locality": "New South Wales, Western Plains Regional",
      "featureClass": "park",
      "lat": -32.698502,
      "lng": 149.117905,
      "continent": "Oceania"
    },
    {
      "name": "Burrinjuck National Park",
      "country": "Australia",
      "locality": "New South Wales, Yass Valley",
      "featureClass": "nature reserve",
      "lat": -34.96644,
      "lng": 148.59386,
      "continent": "Oceania"
    },
    {
      "name": "Burrowa-Pine Mountain National Park",
      "country": "Australia",
      "locality": "Victoria, Towong",
      "featureClass": "park",
      "lat": -36.095696,
      "lng": 147.72319,
      "continent": "Oceania"
    },
    {
      "name": "Burrum Coast National Park",
      "country": "Australia",
      "locality": "Queensland, Bundaberg",
      "featureClass": "park",
      "lat": -25.128412,
      "lng": 152.551056,
      "continent": "Oceania"
    },
    {
      "name": "Bushy Island National Park",
      "country": "Australia",
      "locality": "Queensland",
      "featureClass": "park",
      "lat": -20.952316,
      "lng": 150.073288,
      "continent": "Oceania"
    },
    {
      "name": "Byfield National Park",
      "country": "Australia",
      "locality": "Queensland, Livingstone",
      "featureClass": "park",
      "lat": -22.8597,
      "lng": 150.76211,
      "continent": "Oceania"
    },
    {
      "name": "Calectasia National Park",
      "country": "Australia",
      "locality": "South Australia, Wattle Range",
      "featureClass": "park",
      "lat": -37.35759,
      "lng": 140.550583,
      "continent": "Oceania"
    },
    {
      "name": "Cammoweal Caves National Park",
      "country": "Australia",
      "locality": "Queensland, Mount Isa",
      "featureClass": "park",
      "lat": -20.017672,
      "lng": 138.191208,
      "continent": "Oceania"
    },
    {
      "name": "Cania Gorge National Park",
      "country": "Australia",
      "locality": "Queensland, North Burnett",
      "featureClass": "park",
      "lat": -24.681194,
      "lng": 150.985794,
      "continent": "Oceania"
    },
    {
      "name": "Canunda National Park",
      "country": "Australia",
      "locality": "South Australia, Wattle Range",
      "featureClass": "park",
      "lat": -37.70224,
      "lng": 140.281036,
      "continent": "Oceania"
    },
    {
      "name": "Cape Arid National Park",
      "country": "Australia",
      "locality": "Western Australia, Shire of Esperance",
      "featureClass": "park",
      "lat": -33.623711,
      "lng": 123.376503,
      "continent": "Oceania"
    },
    {
      "name": "Cape Gantheaume National Park",
      "country": "Australia",
      "locality": "South Australia, Kangaroo Island",
      "featureClass": "park",
      "lat": -35.98893,
      "lng": 137.455582,
      "continent": "Oceania"
    },
    {
      "name": "Cape Hart National Park",
      "country": "Australia",
      "locality": "South Australia, Kangaroo Island",
      "featureClass": "park",
      "lat": -35.861809,
      "lng": 138.080765,
      "continent": "Oceania"
    },
    {
      "name": "Cape Hillsborough National Park",
      "country": "Australia",
      "locality": "Queensland, Mackay",
      "featureClass": "park",
      "lat": -20.910936,
      "lng": 149.033035,
      "continent": "Oceania"
    },
    {
      "name": "Cape Le Grand National Park",
      "country": "Australia",
      "locality": "Western Australia, Shire of Esperance",
      "featureClass": "park",
      "lat": -33.93652,
      "lng": 122.23732,
      "continent": "Oceania"
    },
    {
      "name": "Cape Melville National Park",
      "country": "Australia",
      "locality": "Queensland, Cook Shire",
      "featureClass": "park",
      "lat": -14.406667,
      "lng": 144.450272,
      "continent": "Oceania"
    },
    {
      "name": "Cape Palmerston National Park",
      "country": "Australia",
      "locality": "Queensland, Mackay",
      "featureClass": "park",
      "lat": -21.58843,
      "lng": 149.428864,
      "continent": "Oceania"
    },
    {
      "name": "Cape Range National Park",
      "country": "Australia",
      "locality": "Western Australia, Exmouth",
      "featureClass": "park",
      "lat": -22.06957,
      "lng": 113.97792,
      "continent": "Oceania"
    },
    {
      "name": "Cape Upstart National Park",
      "country": "Australia",
      "locality": "Queensland, Whitsunday",
      "featureClass": "park",
      "lat": -19.751223,
      "lng": 147.806091,
      "continent": "Oceania"
    },
    {
      "name": "Capertee National Park",
      "country": "Australia",
      "locality": "New South Wales, Lithgow",
      "featureClass": "nature reserve",
      "lat": -33.0318,
      "lng": 150.0346,
      "continent": "Oceania"
    },
    {
      "name": "Capricorn Cays National Park",
      "country": "Australia",
      "locality": "Queensland, Gladstone",
      "featureClass": "park",
      "lat": -23.53912,
      "lng": 151.73801,
      "continent": "Oceania"
    },
    {
      "name": "Capricorn Cays National Park",
      "country": "Australia",
      "locality": "Queensland, Gladstone",
      "featureClass": "park",
      "lat": -23.809521,
      "lng": 152.288559,
      "continent": "Oceania"
    },
    {
      "name": "Capricorn Cays National Park (Scientific)",
      "country": "Australia",
      "locality": "Queensland, Gladstone",
      "featureClass": "nature reserve",
      "lat": -23.8082,
      "lng": 152.28935,
      "continent": "Oceania"
    },
    {
      "name": "Capricorn Coast National Park",
      "country": "Australia",
      "locality": "Queensland, Livingstone",
      "featureClass": "park",
      "lat": -23.18133,
      "lng": 150.79592,
      "continent": "Oceania"
    },
    {
      "name": "Carnarvon National Park",
      "country": "Australia",
      "locality": "Queensland, Central Highlands",
      "featureClass": "park",
      "lat": -25.05994,
      "lng": 148.22788,
      "continent": "Oceania"
    },
    {
      "name": "Carnarvon National Park",
      "country": "Australia",
      "locality": "Queensland, Maranoa",
      "featureClass": "park",
      "lat": -24.972878,
      "lng": 147.992523,
      "continent": "Oceania"
    },
    {
      "name": "Cascade National Park",
      "country": "Australia",
      "locality": "New South Wales, Bellingen",
      "featureClass": "park",
      "lat": -30.24991,
      "lng": 152.79707,
      "continent": "Oceania"
    },
    {
      "name": "Castle Tower National Park",
      "country": "Australia",
      "locality": "Queensland, Gladstone",
      "featureClass": "park",
      "lat": -24.1675,
      "lng": 151.319992,
      "continent": "Oceania"
    },
    {
      "name": "Cathedral Rock National Park",
      "country": "Australia",
      "locality": "New South Wales, Armidale Regional",
      "featureClass": "park",
      "lat": -30.4399,
      "lng": 152.25093,
      "continent": "Oceania"
    },
    {
      "name": "Cedar Bay National Park",
      "country": "Australia",
      "locality": "Queensland, Cook Shire",
      "featureClass": "park",
      "lat": -15.81885,
      "lng": 145.33127,
      "continent": "Oceania"
    },
    {
      "name": "Chaelundi National Park",
      "country": "Australia",
      "locality": "New South Wales, Clarence Valley",
      "featureClass": "park",
      "lat": -29.9507,
      "lng": 152.53261,
      "continent": "Oceania"
    },
    {
      "name": "Cherbourg National Park",
      "country": "Australia",
      "locality": "Queensland, South Burnett",
      "featureClass": "park",
      "lat": -26.407778,
      "lng": 151.998337,
      "continent": "Oceania"
    },
    {
      "name": "Chesterton Range National Park",
      "country": "Australia",
      "locality": "Queensland, Maranoa",
      "featureClass": "park",
      "lat": -26.179827,
      "lng": 147.369202,
      "continent": "Oceania"
    },
    {
      "name": "Chillagoe-Mungana Caves National Park",
      "country": "Australia",
      "locality": "Queensland, Mareeba",
      "featureClass": "park",
      "lat": -17.203192,
      "lng": 144.503342,
      "continent": "Oceania"
    },
    {
      "name": "Churchill National Park",
      "country": "Australia",
      "locality": "Victoria, Casey",
      "featureClass": "park",
      "lat": -37.949306,
      "lng": 145.259857,
      "continent": "Oceania"
    },
    {
      "name": "Claremont Isles National Park",
      "country": "Australia",
      "locality": "Queensland, Cook Shire",
      "featureClass": "park",
      "lat": -13.93646,
      "lng": 143.75471,
      "continent": "Oceania"
    },
    {
      "name": "Cliff Island National Park",
      "country": "Australia",
      "locality": "Queensland, Cook Shire",
      "featureClass": "park",
      "lat": -14.218483,
      "lng": 143.77417,
      "continent": "Oceania"
    },
    {
      "name": "Clump Mountain National Park",
      "country": "Australia",
      "locality": "Queensland, Cassowary Coast",
      "featureClass": "park",
      "lat": -17.84556,
      "lng": 146.09144,
      "continent": "Oceania"
    },
    {
      "name": "Coalstoun Lakes National Park",
      "country": "Australia",
      "locality": "Queensland, North Burnett",
      "featureClass": "park",
      "lat": -25.596193,
      "lng": 151.909958,
      "continent": "Oceania"
    },
    {
      "name": "Cocoparra National Park",
      "country": "Australia",
      "locality": "New South Wales, Carrathool",
      "featureClass": "park",
      "lat": -34.131802,
      "lng": 146.217896,
      "continent": "Oceania"
    },
    {
      "name": "Coffin Bay National Park",
      "country": "Australia",
      "locality": "South Australia, Lower Eyre Peninsula",
      "featureClass": "park",
      "lat": -34.60701,
      "lng": 135.337738,
      "continent": "Oceania"
    },
    {
      "name": "Collier Range National Park",
      "country": "Australia",
      "locality": "Western Australia, Meekatharra",
      "featureClass": "park",
      "lat": -24.66534,
      "lng": 119.193001,
      "continent": "Oceania"
    },
    {
      "name": "Conimbla National Park",
      "country": "Australia",
      "locality": "New South Wales, Cowra",
      "featureClass": "park",
      "lat": -33.765202,
      "lng": 148.467896,
      "continent": "Oceania"
    },
    {
      "name": "Conondale National Park",
      "country": "Australia",
      "locality": "Queensland, Sunshine Coast",
      "featureClass": "park",
      "lat": -26.715631,
      "lng": 152.58551,
      "continent": "Oceania"
    },
    {
      "name": "Conway National Park",
      "country": "Australia",
      "locality": "Queensland, Whitsunday",
      "featureClass": "park",
      "lat": -20.413715,
      "lng": 148.816361,
      "continent": "Oceania"
    },
    {
      "name": "Coongie Lakes National Park",
      "country": "Australia",
      "locality": "South Australia",
      "featureClass": "park",
      "lat": -27.261299,
      "lng": 140.157044,
      "continent": "Oceania"
    },
    {
      "name": "Coorong National Park",
      "country": "Australia",
      "locality": "South Australia, The Coorong",
      "featureClass": "park",
      "lat": -35.93129,
      "lng": 139.45495,
      "continent": "Oceania"
    },
    {
      "name": "Cowaramup National Park",
      "country": "Australia",
      "locality": "Western Australia, Augusta-Margaret River Shire",
      "featureClass": "park",
      "lat": -33.872421,
      "lng": 114.990402,
      "continent": "Oceania"
    },
    {
      "name": "Cradle Mountain-Lake Saint Clair National Park",
      "country": "Australia",
      "locality": "Tasmania, West Coast",
      "featureClass": "park",
      "lat": -41.82787,
      "lng": 146.0004,
      "continent": "Oceania"
    },
    {
      "name": "Crater Lakes National Park",
      "country": "Australia",
      "locality": "Queensland, Tablelands",
      "featureClass": "park",
      "lat": -17.28197,
      "lng": 145.61314,
      "continent": "Oceania"
    },
    {
      "name": "Croajingolong National Park",
      "country": "Australia",
      "locality": "Victoria, East Gippsland",
      "featureClass": "park",
      "lat": -37.7304,
      "lng": 149.44874,
      "continent": "Oceania"
    },
    {
      "name": "Crowdy Bay National Park",
      "country": "Australia",
      "locality": "New South Wales, Mid-Coast",
      "featureClass": "park",
      "lat": -31.8318,
      "lng": 152.667893,
      "continent": "Oceania"
    },
    {
      "name": "Crows Nest National Park",
      "country": "Australia",
      "locality": "Queensland, Toowoomba",
      "featureClass": "park",
      "lat": -27.294443,
      "lng": 152.097488,
      "continent": "Oceania"
    },
    {
      "name": "Cudgegong River National Park",
      "country": "Australia",
      "locality": "New South Wales, Western Plains Regional",
      "featureClass": "park",
      "lat": -32.62496,
      "lng": 149.256504,
      "continent": "Oceania"
    },
    {
      "name": "Cudmore National Park",
      "country": "Australia",
      "locality": "Queensland, Barcaldine",
      "featureClass": "park",
      "lat": -22.926502,
      "lng": 146.305573,
      "continent": "Oceania"
    },
    {
      "name": "Culgoa Floodplain National Park",
      "country": "Australia",
      "locality": "Queensland, Shire of Balonne",
      "featureClass": "park",
      "lat": -28.916498,
      "lng": 147.011169,
      "continent": "Oceania"
    },
    {
      "name": "Culgoa National Park",
      "country": "Australia",
      "locality": "New South Wales, Brewarrina",
      "featureClass": "park",
      "lat": -29.0818,
      "lng": 147.067902,
      "continent": "Oceania"
    },
    {
      "name": "Cunnawarra National Park",
      "country": "Australia",
      "locality": "New South Wales, Armidale Regional",
      "featureClass": "park",
      "lat": -30.5818,
      "lng": 152.284607,
      "continent": "Oceania"
    },
    {
      "name": "Currawinya National Park",
      "country": "Australia",
      "locality": "Queensland, Bulloo",
      "featureClass": "park",
      "lat": -28.78735,
      "lng": 144.553711,
      "continent": "Oceania"
    },
    {
      "name": "Curtain Fig National Park",
      "country": "Australia",
      "locality": "Queensland, Tablelands",
      "featureClass": "park",
      "lat": -17.282499,
      "lng": 145.572769,
      "continent": "Oceania"
    },
    {
      "name": "Curtis Island National Park",
      "country": "Australia",
      "locality": "Queensland, Gladstone",
      "featureClass": "park",
      "lat": -23.5287,
      "lng": 151.222168,
      "continent": "Oceania"
    },
    {
      "name": "Daintree National Park",
      "country": "Australia",
      "locality": "Queensland, Douglas",
      "featureClass": "park",
      "lat": -16.163193,
      "lng": 145.374985,
      "continent": "Oceania"
    },
    {
      "name": "Daintree National Park",
      "country": "Australia",
      "locality": "Queensland, Douglas",
      "featureClass": "park",
      "lat": -16.30004,
      "lng": 145.24784,
      "continent": "Oceania"
    },
    {
      "name": "Dalrymple National Park",
      "country": "Australia",
      "locality": "Queensland, Charters Towers",
      "featureClass": "park",
      "lat": -19.809845,
      "lng": 146.10556,
      "continent": "Oceania"
    },
    {
      "name": "Dan Dan National Park",
      "country": "Australia",
      "locality": "Queensland, Gladstone",
      "featureClass": "park",
      "lat": -24.159445,
      "lng": 151.066666,
      "continent": "Oceania"
    },
    {
      "name": "Danbulla National Park",
      "country": "Australia",
      "locality": "Queensland, Tablelands",
      "featureClass": "park",
      "lat": -17.118055,
      "lng": 145.603622,
      "continent": "Oceania"
    },
    {
      "name": "Danbulla National Park (Recovery)",
      "country": "Australia",
      "locality": "Queensland, Tablelands",
      "featureClass": "nature reserve",
      "lat": -17.118055,
      "lng": 145.603622,
      "continent": "Oceania"
    },
    {
      "name": "Dandenong Ranges National Park",
      "country": "Australia",
      "locality": "Victoria, Yarra Ranges",
      "featureClass": "park",
      "lat": -37.846367,
      "lng": 145.344295,
      "continent": "Oceania"
    },
    {
      "name": "Davies Creek National Park",
      "country": "Australia",
      "locality": "Queensland, Mareeba",
      "featureClass": "park",
      "lat": -17.00685,
      "lng": 145.57576,
      "continent": "Oceania"
    },
    {
      "name": "Dawes National Park",
      "country": "Australia",
      "locality": "Queensland, Gladstone",
      "featureClass": "park",
      "lat": -24.53861,
      "lng": 151.27916,
      "continent": "Oceania"
    },
    {
      "name": "Dawes National Park",
      "country": "Australia",
      "locality": "Queensland, North Burnett",
      "featureClass": "park",
      "lat": -24.65,
      "lng": 151.208328,
      "continent": "Oceania"
    },
    {
      "name": "Dawes National Park (Recovery)",
      "country": "Australia",
      "locality": "Queensland, North Burnett",
      "featureClass": "nature reserve",
      "lat": -24.65,
      "lng": 151.208328,
      "continent": "Oceania"
    },
    {
      "name": "Deepwater National Park",
      "country": "Australia",
      "locality": "Queensland, Gladstone",
      "featureClass": "park",
      "lat": -24.313141,
      "lng": 151.93605,
      "continent": "Oceania"
    },
    {
      "name": "Deer Reserve National Park",
      "country": "Australia",
      "locality": "Queensland, Somerset",
      "featureClass": "park",
      "lat": -27.081945,
      "lng": 152.52417,
      "continent": "Oceania"
    },
    {
      "name": "Denham Group National Park",
      "country": "Australia",
      "locality": "Queensland",
      "featureClass": "park",
      "lat": -11.167667,
      "lng": 143.015274,
      "continent": "Oceania"
    },
    {
      "name": "Desert Camp National Parks Reserve",
      "country": "Australia",
      "locality": "South Australia, Kingston",
      "featureClass": "park",
      "lat": -36.4799,
      "lng": 140.367493,
      "continent": "Oceania"
    },
    {
      "name": "Deua National Park",
      "country": "Australia",
      "locality": "New South Wales, Eurobodalla",
      "featureClass": "park",
      "lat": -35.915199,
      "lng": 149.751205,
      "continent": "Oceania"
    },
    {
      "name": "Dharug National Park",
      "country": "Australia",
      "locality": "New South Wales, Central Coast",
      "featureClass": "park",
      "lat": -33.3652,
      "lng": 151.084595,
      "continent": "Oceania"
    },
    {
      "name": "Diamantina National Park",
      "country": "Australia",
      "locality": "Queensland, Diamantina",
      "featureClass": "park",
      "lat": -23.717924,
      "lng": 141.191483,
      "continent": "Oceania"
    },
    {
      "name": "Dinden National Park",
      "country": "Australia",
      "locality": "Queensland, Cairns",
      "featureClass": "park",
      "lat": -16.991388,
      "lng": 145.647492,
      "continent": "Oceania"
    },
    {
      "name": "Dinden National Park",
      "country": "Australia",
      "locality": "Queensland, Mareeba",
      "featureClass": "park",
      "lat": -16.971111,
      "lng": 145.639725,
      "continent": "Oceania"
    },
    {
      "name": "Dinden National Park (Recovery)",
      "country": "Australia",
      "locality": "Queensland, Mareeba",
      "featureClass": "nature reserve",
      "lat": -16.971111,
      "lng": 145.639725,
      "continent": "Oceania"
    },
    {
      "name": "Dipperu National Park",
      "country": "Australia",
      "locality": "Queensland, Isaac",
      "featureClass": "park",
      "lat": -21.936491,
      "lng": 148.71637,
      "continent": "Oceania"
    },
    {
      "name": "Dipperu National Park (Scientific)",
      "country": "Australia",
      "locality": "Queensland, Isaac",
      "featureClass": "nature reserve",
      "lat": -21.936491,
      "lng": 148.716362,
      "continent": "Oceania"
    },
    {
      "name": "Dirk Hartog National Park",
      "country": "Australia",
      "locality": "Western Australia, Shark Bay",
      "featureClass": "park",
      "lat": -25.74857,
      "lng": 113.03867,
      "continent": "Oceania"
    },
    {
      "name": "Djukbinj National Park",
      "country": "Australia",
      "locality": "Northern Territory",
      "featureClass": "park",
      "lat": -12.6017,
      "lng": 131.440598,
      "continent": "Oceania"
    },
    {
      "name": "Dorrigo National Park",
      "country": "Australia",
      "locality": "New South Wales, Bellingen",
      "featureClass": "park",
      "lat": -30.3818,
      "lng": 152.751205,
      "continent": "Oceania"
    },
    {
      "name": "Douglas-Apsley National Park",
      "country": "Australia",
      "locality": "Tasmania, Break O'Day",
      "featureClass": "park",
      "lat": -41.77,
      "lng": 148.190002,
      "continent": "Oceania"
    },
    {
      "name": "Drovers Cave National Park",
      "country": "Australia",
      "locality": "Western Australia, Dandaragan",
      "featureClass": "park",
      "lat": -30.22127,
      "lng": 115.0895,
      "continent": "Oceania"
    },
    {
      "name": "Dryander National Park",
      "country": "Australia",
      "locality": "Queensland, Whitsunday",
      "featureClass": "park",
      "lat": -20.218056,
      "lng": 148.568329,
      "continent": "Oceania"
    },
    {
      "name": "Drysdale River National Park",
      "country": "Australia",
      "locality": "Western Australia, Wyndham-East Kimberley",
      "featureClass": "park",
      "lat": -14.68052,
      "lng": 127.106796,
      "continent": "Oceania"
    },
    {
      "name": "Dularcha National Park",
      "country": "Australia",
      "locality": "Queensland, Sunshine Coast",
      "featureClass": "park",
      "lat": -26.785349,
      "lng": 152.963562,
      "continent": "Oceania"
    },
    {
      "name": "Dulcie Range National Park",
      "country": "Australia",
      "locality": "Northern Territory, Central Desert",
      "featureClass": "park",
      "lat": -22.537201,
      "lng": 135.543594,
      "continent": "Oceania"
    },
    {
      "name": "D\u2019Aguilar National Park",
      "country": "Australia",
      "locality": "Queensland, Moreton Bay",
      "featureClass": "park",
      "lat": -27.314999,
      "lng": 152.760834,
      "continent": "Oceania"
    },
    {
      "name": "D\u2019Entrecasteaux National Park",
      "country": "Australia",
      "locality": "Western Australia, Manjimup",
      "featureClass": "park",
      "lat": -34.605751,
      "lng": 115.932602,
      "continent": "Oceania"
    },
    {
      "name": "Edmund Kennedy National Park",
      "country": "Australia",
      "locality": "Queensland, Cassowary Coast",
      "featureClass": "park",
      "lat": -18.129572,
      "lng": 145.990555,
      "continent": "Oceania"
    },
    {
      "name": "Ella Bay National Park",
      "country": "Australia",
      "locality": "Queensland, Cassowary Coast",
      "featureClass": "park",
      "lat": -17.435684,
      "lng": 146.051376,
      "continent": "Oceania"
    },
    {
      "name": "Elsey National Park",
      "country": "Australia",
      "locality": "Northern Territory, Roper Gulf",
      "featureClass": "park",
      "lat": -14.9544,
      "lng": 133.186493,
      "continent": "Oceania"
    },
    {
      "name": "Endeavour River National Park",
      "country": "Australia",
      "locality": "Queensland, Cook Shire",
      "featureClass": "park",
      "lat": -15.44946,
      "lng": 145.22209,
      "continent": "Oceania"
    },
    {
      "name": "Epping Forest National Park",
      "country": "Australia",
      "locality": "Queensland, Isaac",
      "featureClass": "park",
      "lat": -22.350111,
      "lng": 146.702515,
      "continent": "Oceania"
    },
    {
      "name": "Epping Forest National Park (Scientific)",
      "country": "Australia",
      "locality": "Queensland, Isaac",
      "featureClass": "nature reserve",
      "lat": -22.350112,
      "lng": 146.702508,
      "continent": "Oceania"
    },
    {
      "name": "Eric Bonython National Park",
      "country": "Australia",
      "locality": "South Australia, Yankalilla",
      "featureClass": "park",
      "lat": -35.600922,
      "lng": 138.329712,
      "continent": "Oceania"
    },
    {
      "name": "Erringibba National Park",
      "country": "Australia",
      "locality": "Queensland, Western Downs",
      "featureClass": "park",
      "lat": -27.288702,
      "lng": 149.705277,
      "continent": "Oceania"
    },
    {
      "name": "Esk National Park",
      "country": "Australia",
      "locality": "Queensland, Somerset",
      "featureClass": "park",
      "lat": -27.294722,
      "lng": 152.319717,
      "continent": "Oceania"
    },
    {
      "name": "Eubenangee Swamp National Park",
      "country": "Australia",
      "locality": "Queensland, Cairns",
      "featureClass": "park",
      "lat": -17.422907,
      "lng": 145.960266,
      "continent": "Oceania"
    },
    {
      "name": "Eucla National Park",
      "country": "Australia",
      "locality": "Western Australia, Dundas",
      "featureClass": "park",
      "lat": -31.67669,
      "lng": 128.95735,
      "continent": "Oceania"
    },
    {
      "name": "Eudlo Creek National Park",
      "country": "Australia",
      "locality": "Queensland, Sunshine Coast",
      "featureClass": "park",
      "lat": -26.708961,
      "lng": 152.959961,
      "continent": "Oceania"
    },
    {
      "name": "Eungella National Park",
      "country": "Australia",
      "locality": "Queensland, Mackay",
      "featureClass": "park",
      "lat": -21.043055,
      "lng": 148.627777,
      "continent": "Oceania"
    },
    {
      "name": "Eurimbula National Park",
      "country": "Australia",
      "locality": "Queensland, Gladstone",
      "featureClass": "park",
      "lat": -24.181751,
      "lng": 151.786057,
      "continent": "Oceania"
    },
    {
      "name": "Eurobodalla National Park",
      "country": "Australia",
      "locality": "New South Wales, Eurobodalla",
      "featureClass": "park",
      "lat": -36.122101,
      "lng": 150.124802,
      "continent": "Oceania"
    },
    {
      "name": "Expedition (Limited Depth) National Park",
      "country": "Australia",
      "locality": "Queensland, Banana",
      "featureClass": "park",
      "lat": -25.340557,
      "lng": 149.033051,
      "continent": "Oceania"
    },
    {
      "name": "Fairlies Knob National Park",
      "country": "Australia",
      "locality": "Queensland, Fraser Coast",
      "featureClass": "park",
      "lat": -25.503969,
      "lng": 152.293823,
      "continent": "Oceania"
    },
    {
      "name": "Fairview National Park",
      "country": "Australia",
      "locality": "South Australia, Naracoorte and Lucindale",
      "featureClass": "park",
      "lat": -36.828838,
      "lng": 140.418716,
      "continent": "Oceania"
    },
    {
      "name": "Family Islands National Park",
      "country": "Australia",
      "locality": "Queensland, Cassowary Coast",
      "featureClass": "park",
      "lat": -17.949295,
      "lng": 146.159988,
      "continent": "Oceania"
    },
    {
      "name": "Ferntree Creek National Park",
      "country": "Australia",
      "locality": "Queensland, Sunshine Coast",
      "featureClass": "park",
      "lat": -26.60535,
      "lng": 152.963547,
      "continent": "Oceania"
    },
    {
      "name": "Ferntree Gully National Park",
      "country": "Australia",
      "locality": "Victoria, Yarra Ranges",
      "featureClass": "park",
      "lat": -37.87986,
      "lng": 145.318192,
      "continent": "Oceania"
    },
    {
      "name": "Ferries-McDonald National Park",
      "country": "Australia",
      "locality": "South Australia, Murray Bridge",
      "featureClass": "park",
      "lat": -35.228001,
      "lng": 139.135513,
      "continent": "Oceania"
    },
    {
      "name": "Finke Gorge National Park",
      "country": "Australia",
      "locality": "Northern Territory, MacDonnell",
      "featureClass": "park",
      "lat": -23.6667,
      "lng": 132.649994,
      "continent": "Oceania"
    },
    {
      "name": "Fitzgerald River National Park",
      "country": "Australia",
      "locality": "Western Australia, Jerramungup",
      "featureClass": "park",
      "lat": -34.081261,
      "lng": 119.429001,
      "continent": "Oceania"
    },
    {
      "name": "Fitzgerald River National Park",
      "country": "Australia",
      "locality": "Western Australia, Ravensthorpe",
      "featureClass": "section of populated place",
      "lat": -34.001643,
      "lng": 119.597977,
      "continent": "Oceania"
    },
    {
      "name": "Fitzroy Caves National Park",
      "country": "Australia",
      "locality": "Queensland, Livingstone",
      "featureClass": "park",
      "lat": -23.156755,
      "lng": 150.459412,
      "continent": "Oceania"
    },
    {
      "name": "Fitzroy Island National Park",
      "country": "Australia",
      "locality": "Queensland, Cairns",
      "featureClass": "park",
      "lat": -16.928186,
      "lng": 145.993332,
      "continent": "Oceania"
    },
    {
      "name": "Flinders Chase National Park",
      "country": "Australia",
      "locality": "South Australia, Kangaroo Island",
      "featureClass": "park",
      "lat": -35.92897,
      "lng": 136.722076,
      "continent": "Oceania"
    },
    {
      "name": "Flinders Group National Park",
      "country": "Australia",
      "locality": "Queensland, Cook Shire",
      "featureClass": "park",
      "lat": -14.177372,
      "lng": 144.251114,
      "continent": "Oceania"
    },
    {
      "name": "Flinders Ranges National Park",
      "country": "Australia",
      "locality": "South Australia",
      "featureClass": "park",
      "lat": -31.36121,
      "lng": 138.653656,
      "continent": "Oceania"
    },
    {
      "name": "Forbes Islands National Park",
      "country": "Australia",
      "locality": "Queensland, Cook Shire",
      "featureClass": "park",
      "lat": -12.289608,
      "lng": 143.411102,
      "continent": "Oceania"
    },
    {
      "name": "Forest Den National Park",
      "country": "Australia",
      "locality": "Queensland, Barcaldine",
      "featureClass": "park",
      "lat": -22.121511,
      "lng": 145.198639,
      "continent": "Oceania"
    },
    {
      "name": "Fort Lytton National Park",
      "country": "Australia",
      "locality": "Queensland, Brisbane",
      "featureClass": "park",
      "lat": -27.41104,
      "lng": 153.15076,
      "continent": "Oceania"
    },
    {
      "name": "Forty Mile Scrub National Park",
      "country": "Australia",
      "locality": "Queensland, Mareeba",
      "featureClass": "park",
      "lat": -18.095001,
      "lng": 144.848328,
      "continent": "Oceania"
    },
    {
      "name": "Frances Peron National Park",
      "country": "Australia",
      "locality": "Western Australia, Shark Bay",
      "featureClass": "park",
      "lat": -25.86324,
      "lng": 113.60001,
      "continent": "Oceania"
    },
    {
      "name": "Francois Peron National Park",
      "country": "Australia",
      "locality": "Western Australia, Shark Bay",
      "featureClass": "park",
      "lat": -25.699301,
      "lng": 113.542198,
      "continent": "Oceania"
    },
    {
      "name": "Frank Hann National Park",
      "country": "Australia",
      "locality": "Western Australia, Lake Grace",
      "featureClass": "park",
      "lat": -32.903461,
      "lng": 120.296501,
      "continent": "Oceania"
    },
    {
      "name": "Frankland Group National Park",
      "country": "Australia",
      "locality": "Queensland, Cairns",
      "featureClass": "park",
      "lat": -17.162352,
      "lng": 146.012207,
      "continent": "Oceania"
    },
    {
      "name": "Franklin-Gordon Wild Rivers National Park",
      "country": "Australia",
      "locality": "Tasmania, West Coast",
      "featureClass": "nature reserve",
      "lat": -42.450001,
      "lng": 145.5,
      "continent": "Oceania"
    },
    {
      "name": "Fraser National Park",
      "country": "Australia",
      "locality": "Victoria, Murrindindi",
      "featureClass": "park",
      "lat": -37.151527,
      "lng": 145.830139,
      "continent": "Oceania"
    },
    {
      "name": "French Island Marine National Park",
      "country": "Australia",
      "locality": "Victoria",
      "featureClass": "park",
      "lat": -38.29728,
      "lng": 145.37547,
      "continent": "Oceania"
    },
    {
      "name": "French Island National Park",
      "country": "Australia",
      "locality": "Victoria",
      "featureClass": "park",
      "lat": -38.32644,
      "lng": 145.3371,
      "continent": "Oceania"
    },
    {
      "name": "Frenchmans Cap National Park",
      "country": "Australia",
      "locality": "Tasmania, West Coast",
      "featureClass": "park",
      "lat": -42.266667,
      "lng": 145.833333,
      "continent": "Oceania"
    },
    {
      "name": "Frenchmans Cap National Park",
      "country": "Australia",
      "locality": "Tasmania, West Coast",
      "featureClass": "nature reserve",
      "lat": -42.259998,
      "lng": 145.800003,
      "continent": "Oceania"
    },
    {
      "name": "Freshwater National Park",
      "country": "Australia",
      "locality": "Queensland, Moreton Bay",
      "featureClass": "park",
      "lat": -27.175627,
      "lng": 152.990509,
      "continent": "Oceania"
    },
    {
      "name": "Freycinet National Park",
      "country": "Australia",
      "locality": "Tasmania, Glamorgan/Spring Bay",
      "featureClass": "park",
      "lat": -42.080002,
      "lng": 148.279999,
      "continent": "Oceania"
    },
    {
      "name": "Gaagal Wanggaan (South Beach) National Park",
      "country": "Australia",
      "locality": "New South Wales, Nambucca Shire",
      "featureClass": "nature reserve",
      "lat": -30.692805,
      "lng": 152.989045,
      "continent": "Oceania"
    },
    {
      "name": "Garig Gunak Barlu National Park",
      "country": "Australia",
      "locality": "Northern Territory, West Arnhem",
      "featureClass": "park",
      "lat": -11.3211,
      "lng": 132.178207,
      "continent": "Oceania"
    },
    {
      "name": "Garig Gunak Barlu National Park",
      "country": "Australia",
      "locality": "Northern Territory, West Arnhem",
      "featureClass": "park",
      "lat": -11.31781,
      "lng": 132.27522,
      "continent": "Oceania"
    },
    {
      "name": "Garigal National Park",
      "country": "Australia",
      "locality": "New South Wales, Northern Beaches",
      "featureClass": "park",
      "lat": -33.706799,
      "lng": 151.251205,
      "continent": "Oceania"
    },
    {
      "name": "Gatton National Park",
      "country": "Australia",
      "locality": "Queensland, Lockyer Valley",
      "featureClass": "park",
      "lat": -27.606945,
      "lng": 152.301666,
      "continent": "Oceania"
    },
    {
      "name": "Gawler Ranges National Park",
      "country": "Australia",
      "locality": "South Australia",
      "featureClass": "park",
      "lat": -32.580151,
      "lng": 135.438217,
      "continent": "Oceania"
    },
    {
      "name": "Geham National Park",
      "country": "Australia",
      "locality": "Queensland, Toowoomba",
      "featureClass": "park",
      "lat": -27.388056,
      "lng": 152.037506,
      "continent": "Oceania"
    },
    {
      "name": "Geikie Gorge National Park",
      "country": "Australia",
      "locality": "Western Australia, Derby-West Kimberley",
      "featureClass": "park",
      "lat": -18.045,
      "lng": 125.7556,
      "continent": "Oceania"
    },
    {
      "name": "Georges River National Park",
      "country": "Australia",
      "locality": "New South Wales, Sutherland Shire",
      "featureClass": "park",
      "lat": -33.9818,
      "lng": 151.034607,
      "continent": "Oceania"
    },
    {
      "name": "Gibraltar Range National Park",
      "country": "Australia",
      "locality": "New South Wales, Glen Innes Severn",
      "featureClass": "park",
      "lat": -29.554444,
      "lng": 152.323889,
      "continent": "Oceania"
    },
    {
      "name": "Gibraltar Range National Park",
      "country": "Australia",
      "locality": "New South Wales, Glen Innes Severn",
      "featureClass": "park",
      "lat": -29.498501,
      "lng": 152.284607,
      "continent": "Oceania"
    },
    {
      "name": "Girraween National Park",
      "country": "Australia",
      "locality": "Queensland, Southern Downs",
      "featureClass": "park",
      "lat": -28.77409,
      "lng": 151.91259,
      "continent": "Oceania"
    },
    {
      "name": "Girraween National Park",
      "country": "Australia",
      "locality": "Queensland, Southern Downs",
      "featureClass": "park",
      "lat": -28.854242,
      "lng": 151.959992,
      "continent": "Oceania"
    },
    {
      "name": "Girringun National Park",
      "country": "Australia",
      "locality": "Queensland, Cassowary Coast",
      "featureClass": "park",
      "lat": -18.3825,
      "lng": 145.77388,
      "continent": "Oceania"
    },
    {
      "name": "Glass House Mountains National Park",
      "country": "Australia",
      "locality": "Queensland, Sunshine Coast",
      "featureClass": "park",
      "lat": -26.925627,
      "lng": 152.944687,
      "continent": "Oceania"
    },
    {
      "name": "Glastonbury National Park",
      "country": "Australia",
      "locality": "Queensland, Gympie Regional Council",
      "featureClass": "park",
      "lat": -26.28445,
      "lng": 152.51221,
      "continent": "Oceania"
    },
    {
      "name": "Glenaladale National Park",
      "country": "Australia",
      "locality": "Victoria, East Gippsland",
      "featureClass": "park",
      "lat": -37.71014,
      "lng": 147.347366,
      "continent": "Oceania"
    },
    {
      "name": "Glenbar National Park",
      "country": "Australia",
      "locality": "Queensland, Fraser Coast",
      "featureClass": "park",
      "lat": -25.856112,
      "lng": 152.359726,
      "continent": "Oceania"
    },
    {
      "name": "Glenbawn National Park Lake",
      "country": "Australia",
      "locality": "New South Wales, Upper Hunter Shire",
      "featureClass": "park",
      "lat": -32.098499,
      "lng": 151.001205,
      "continent": "Oceania"
    },
    {
      "name": "Gloucester National Park",
      "country": "Australia",
      "locality": "Queensland, Whitsunday",
      "featureClass": "park",
      "lat": -20.013441,
      "lng": 148.456635,
      "continent": "Oceania"
    },
    {
      "name": "Gloucester National Park",
      "country": "Australia",
      "locality": "Western Australia, Manjimup",
      "featureClass": "park",
      "lat": -34.453529,
      "lng": 116.054298,
      "continent": "Oceania"
    },
    {
      "name": "Goneaway National Park",
      "country": "Australia",
      "locality": "Queensland, Barcoo",
      "featureClass": "park",
      "lat": -23.79014,
      "lng": 142.204804,
      "continent": "Oceania"
    },
    {
      "name": "Goobang National Park",
      "country": "Australia",
      "locality": "New South Wales, Cabonne",
      "featureClass": "park",
      "lat": -32.66741,
      "lng": 148.35072,
      "continent": "Oceania"
    },
    {
      "name": "Goodedulla National Park",
      "country": "Australia",
      "locality": "Queensland, Rockhampton",
      "featureClass": "park",
      "lat": -23.278147,
      "lng": 149.737473,
      "continent": "Oceania"
    },
    {
      "name": "Goodnight Scrub National Park",
      "country": "Australia",
      "locality": "Queensland, Bundaberg",
      "featureClass": "park",
      "lat": -25.289249,
      "lng": 151.899399,
      "continent": "Oceania"
    },
    {
      "name": "Goold Island National Park",
      "country": "Australia",
      "locality": "Queensland, Cassowary Coast",
      "featureClass": "park",
      "lat": -18.165403,
      "lng": 146.171097,
      "continent": "Oceania"
    },
    {
      "name": "Goongarrie National Park",
      "country": "Australia",
      "locality": "Western Australia, Menzies",
      "featureClass": "park",
      "lat": -29.911751,
      "lng": 121.602799,
      "continent": "Oceania"
    },
    {
      "name": "Goonimbar State Forest",
      "country": "Australia",
      "locality": "New South Wales, Byron Shire",
      "featureClass": "park",
      "lat": -28.57593,
      "lng": 153.40725,
      "continent": "Oceania"
    },
    {
      "name": "Goulburn River National Park",
      "country": "Australia",
      "locality": "New South Wales, Mid-Western Regional",
      "featureClass": "park",
      "lat": -32.248501,
      "lng": 150.001205,
      "continent": "Oceania"
    },
    {
      "name": "Grampians National Park",
      "country": "Australia",
      "locality": "Victoria, Southern Grampians",
      "featureClass": "park",
      "lat": -37.20887,
      "lng": 142.39809,
      "continent": "Oceania"
    },
    {
      "name": "Great Australian Bight Marine National Park",
      "country": "Australia",
      "locality": "South Australia",
      "featureClass": "park",
      "lat": -31.614731,
      "lng": 130.123306,
      "continent": "Oceania"
    },
    {
      "name": "Great Basalt Wall National Park",
      "country": "Australia",
      "locality": "Queensland, Charters Towers",
      "featureClass": "park",
      "lat": -20.015688,
      "lng": 145.343903,
      "continent": "Oceania"
    },
    {
      "name": "Great Sandy National Park",
      "country": "Australia",
      "locality": "Queensland, Fraser Coast",
      "featureClass": "park",
      "lat": -24.998333,
      "lng": 153.267777,
      "continent": "Oceania"
    },
    {
      "name": "Green Island National Park",
      "country": "Australia",
      "locality": "Queensland",
      "featureClass": "park",
      "lat": -16.761242,
      "lng": 145.969437,
      "continent": "Oceania"
    },
    {
      "name": "Greenmount National Park",
      "country": "Australia",
      "locality": "Western Australia, Mundaring",
      "featureClass": "park",
      "lat": -31.90711,
      "lng": 116.058998,
      "continent": "Oceania"
    },
    {
      "name": "Gregory National Park",
      "country": "Australia",
      "locality": "Northern Territory, Victoria Daly",
      "featureClass": "park",
      "lat": -15.88815,
      "lng": 130.3069,
      "continent": "Oceania"
    },
    {
      "name": "Gregory National Park",
      "country": "Australia",
      "locality": "Northern Territory, Victoria Daly",
      "featureClass": "park",
      "lat": -15.63296,
      "lng": 131.26679,
      "continent": "Oceania"
    },
    {
      "name": "Grey Peaks National Park",
      "country": "Australia",
      "locality": "Queensland, Cairns",
      "featureClass": "park",
      "lat": -17.040556,
      "lng": 145.848877,
      "continent": "Oceania"
    },
    {
      "name": "Grongah National Park",
      "country": "Australia",
      "locality": "Queensland, Gympie Regional Council",
      "featureClass": "park",
      "lat": -25.90154,
      "lng": 152.15652,
      "continent": "Oceania"
    },
    {
      "name": "Gundabooka National Park",
      "country": "Australia",
      "locality": "New South Wales, Bourke",
      "featureClass": "park",
      "lat": -30.5096,
      "lng": 145.716507,
      "continent": "Oceania"
    },
    {
      "name": "Gurig National Park",
      "country": "Australia",
      "locality": "Northern Territory, West Arnhem",
      "featureClass": "park",
      "lat": -11.16773,
      "lng": 132.19832,
      "continent": "Oceania"
    },
    {
      "name": "Guy Fawkes National Park",
      "country": "Australia",
      "locality": "New South Wales, Armidale Regional",
      "featureClass": "park",
      "lat": -30.031799,
      "lng": 152.301193,
      "continent": "Oceania"
    },
    {
      "name": "Gwongorella National Park",
      "country": "Australia",
      "locality": "Queensland, Gold Coast",
      "featureClass": "park",
      "lat": -28.164614,
      "lng": 153.285147,
      "continent": "Oceania"
    },
    {
      "name": "Gympie National Park",
      "country": "Australia",
      "locality": "Queensland, Gympie Regional Council",
      "featureClass": "park",
      "lat": -26.074722,
      "lng": 152.719986,
      "continent": "Oceania"
    },
    {
      "name": "Halifax Bay Wetlands National Park",
      "country": "Australia",
      "locality": "Queensland, Hinchinbrook",
      "featureClass": "park",
      "lat": -18.882343,
      "lng": 146.268326,
      "continent": "Oceania"
    },
    {
      "name": "Hambidge National Park",
      "country": "Australia",
      "locality": "South Australia, Cleve",
      "featureClass": "park",
      "lat": -33.3857,
      "lng": 135.92299,
      "continent": "Oceania"
    },
    {
      "name": "Hampton National Park",
      "country": "Australia",
      "locality": "Queensland, Toowoomba",
      "featureClass": "park",
      "lat": -27.352222,
      "lng": 152.074448,
      "continent": "Oceania"
    },
    {
      "name": "Hann Tableland National Park",
      "country": "Australia",
      "locality": "Queensland, Mareeba",
      "featureClass": "park",
      "lat": -16.841248,
      "lng": 145.188614,
      "continent": "Oceania"
    },
    {
      "name": "Hartz Mountains National Park",
      "country": "Australia",
      "locality": "Tasmania, Huon Valley",
      "featureClass": "park",
      "lat": -43.23,
      "lng": 146.75,
      "continent": "Oceania"
    },
    {
      "name": "Hassell National Park",
      "country": "Australia",
      "locality": "Western Australia, Albany",
      "featureClass": "park",
      "lat": -34.666279,
      "lng": 118.332901,
      "continent": "Oceania"
    },
    {
      "name": "Hasties Swamp National Park",
      "country": "Australia",
      "locality": "Queensland, Tablelands",
      "featureClass": "park",
      "lat": -17.298744,
      "lng": 145.474716,
      "continent": "Oceania"
    },
    {
      "name": "Hat Head National Park",
      "country": "Australia",
      "locality": "New South Wales, Kempsey",
      "featureClass": "park",
      "lat": -31.065201,
      "lng": 153.017899,
      "continent": "Oceania"
    },
    {
      "name": "Hattah Lakes National Park",
      "country": "Australia",
      "locality": "Victoria, Mildura",
      "featureClass": "park",
      "lat": -34.702641,
      "lng": 142.289581,
      "continent": "Oceania"
    },
    {
      "name": "Hattah-Kulkyne National Park",
      "country": "Australia",
      "locality": "Victoria, Mildura",
      "featureClass": "park",
      "lat": -34.70872,
      "lng": 142.40393,
      "continent": "Oceania"
    },
    {
      "name": "Heathcote National Park",
      "country": "Australia",
      "locality": "New South Wales, Sutherland Shire",
      "featureClass": "park",
      "lat": -34.11621,
      "lng": 150.95223,
      "continent": "Oceania"
    },
    {
      "name": "Hell Hole Gorge National Park",
      "country": "Australia",
      "locality": "Queensland, Quilpie",
      "featureClass": "park",
      "lat": -25.542349,
      "lng": 144.158386,
      "continent": "Oceania"
    },
    {
      "name": "Hilliger National Park",
      "country": "Australia",
      "locality": "Western Australia, Nannup",
      "featureClass": "park",
      "lat": -34.246941,
      "lng": 115.663597,
      "continent": "Oceania"
    },
    {
      "name": "Hinchinbrook Channel National Park",
      "country": "Australia",
      "locality": "Queensland, Cassowary Coast",
      "featureClass": "park",
      "lat": -18.450001,
      "lng": 146.166672,
      "continent": "Oceania"
    },
    {
      "name": "Hinchinbrook Island National Park",
      "country": "Australia",
      "locality": "Queensland, Cassowary Coast",
      "featureClass": "park",
      "lat": -18.38179,
      "lng": 146.226669,
      "continent": "Oceania"
    },
    {
      "name": "Holbourne Island National Park",
      "country": "Australia",
      "locality": "Queensland, Whitsunday",
      "featureClass": "park",
      "lat": -19.727333,
      "lng": 148.359146,
      "continent": "Oceania"
    },
    {
      "name": "Holey Plains National Park",
      "country": "Australia",
      "locality": "Victoria, Wellington",
      "featureClass": "park",
      "lat": -38.237083,
      "lng": 147.024033,
      "continent": "Oceania"
    },
    {
      "name": "Homevale National Park",
      "country": "Australia",
      "locality": "Queensland, Isaac",
      "featureClass": "park",
      "lat": -21.435938,
      "lng": 148.521378,
      "continent": "Oceania"
    },
    {
      "name": "Hope Islands National Park",
      "country": "Australia",
      "locality": "Queensland",
      "featureClass": "park",
      "lat": -15.7535,
      "lng": 145.45496,
      "continent": "Oceania"
    },
    {
      "name": "Howick Group National Park",
      "country": "Australia",
      "locality": "Queensland, Cook Shire",
      "featureClass": "park",
      "lat": -14.430146,
      "lng": 144.808044,
      "continent": "Oceania"
    },
    {
      "name": "Hull River National Park",
      "country": "Australia",
      "locality": "Queensland, Cassowary Coast",
      "featureClass": "park",
      "lat": -17.970406,
      "lng": 146.052765,
      "continent": "Oceania"
    },
    {
      "name": "Idalia National Park",
      "country": "Australia",
      "locality": "Queensland, Quilpie",
      "featureClass": "park",
      "lat": -24.920401,
      "lng": 144.719498,
      "continent": "Oceania"
    },
    {
      "name": "Innes National Park",
      "country": "Australia",
      "locality": "South Australia, Yorke Peninsula",
      "featureClass": "park",
      "lat": -35.21962,
      "lng": 136.886871,
      "continent": "Oceania"
    },
    {
      "name": "Iron Range National Park",
      "country": "Australia",
      "locality": "Queensland, Cook Shire",
      "featureClass": "park",
      "lat": -12.709,
      "lng": 143.27682,
      "continent": "Oceania"
    },
    {
      "name": "Isla Gorge National Park",
      "country": "Australia",
      "locality": "Queensland, Banana",
      "featureClass": "park",
      "lat": -25.16917,
      "lng": 149.94424,
      "continent": "Oceania"
    },
    {
      "name": "Iytwelepenty / Davenport Ranges National Park",
      "country": "Australia",
      "locality": "Northern Territory, Barkly",
      "featureClass": "nature reserve",
      "lat": -20.85822,
      "lng": 134.9681,
      "continent": "Oceania"
    },
    {
      "name": "Jack River National Park",
      "country": "Australia",
      "locality": "Queensland, Cook Shire",
      "featureClass": "park",
      "lat": -14.938889,
      "lng": 144.662216,
      "continent": "Oceania"
    },
    {
      "name": "Japoon National Park",
      "country": "Australia",
      "locality": "Queensland, Cassowary Coast",
      "featureClass": "park",
      "lat": -17.738056,
      "lng": 145.888336,
      "continent": "Oceania"
    },
    {
      "name": "Jardine River National Park",
      "country": "Australia",
      "locality": "Queensland, Cook Shire",
      "featureClass": "park",
      "lat": -11.311556,
      "lng": 142.632217,
      "continent": "Oceania"
    },
    {
      "name": "Jervis Bay National Park",
      "country": "Australia",
      "locality": "New South Wales, Shoalhaven Shire",
      "featureClass": "park",
      "lat": -35.056801,
      "lng": 150.651199,
      "continent": "Oceania"
    },
    {
      "name": "Jip Jip National Park",
      "country": "Australia",
      "locality": "South Australia, Kingston",
      "featureClass": "park",
      "lat": -36.48299,
      "lng": 140.184677,
      "continent": "Oceania"
    },
    {
      "name": "Jirramun National Park",
      "country": "Australia",
      "locality": "Queensland, Scenic Rim",
      "featureClass": "park",
      "lat": -28.25,
      "lng": 152.5,
      "continent": "Oceania"
    },
    {
      "name": "John Forrest National Park",
      "country": "Australia",
      "locality": "Western Australia, Mundaring",
      "featureClass": "park",
      "lat": -31.88306,
      "lng": 116.0867,
      "continent": "Oceania"
    },
    {
      "name": "Judbarra / Gregory National Park",
      "country": "Australia",
      "locality": "Northern Territory, Victoria Daly",
      "featureClass": "nature reserve",
      "lat": -15.88815,
      "lng": 130.306897,
      "continent": "Oceania"
    },
    {
      "name": "Kakadu National Park",
      "country": "Australia",
      "locality": "Northern Territory, West Arnhem",
      "featureClass": "park",
      "lat": -13.036389,
      "lng": 132.439722,
      "continent": "Oceania"
    },
    {
      "name": "Kakadu National Park",
      "country": "Australia",
      "locality": "Northern Territory, West Arnhem",
      "featureClass": "park",
      "lat": -12.2712,
      "lng": 132.673096,
      "continent": "Oceania"
    },
    {
      "name": "Kalamunda National Park",
      "country": "Australia",
      "locality": "Western Australia, Kalamunda",
      "featureClass": "park",
      "lat": -31.959061,
      "lng": 116.075104,
      "continent": "Oceania"
    },
    {
      "name": "Kalbarri National Park",
      "country": "Australia",
      "locality": "Western Australia, Northampton",
      "featureClass": "park",
      "lat": -27.665421,
      "lng": 114.368103,
      "continent": "Oceania"
    },
    {
      "name": "Kalyarr National Park",
      "country": "Australia",
      "locality": "New South Wales, Hay",
      "featureClass": "park",
      "lat": -34.311298,
      "lng": 144.322601,
      "continent": "Oceania"
    },
    {
      "name": "Kanangra-Boyd National Park",
      "country": "Australia",
      "locality": "New South Wales, Oberon",
      "featureClass": "park",
      "lat": -33.998501,
      "lng": 150.084595,
      "continent": "Oceania"
    },
    {
      "name": "Kangarutha National Park",
      "country": "Australia",
      "locality": "New South Wales, Bega Valley",
      "featureClass": "park",
      "lat": -36.748501,
      "lng": 149.967896,
      "continent": "Oceania"
    },
    {
      "name": "Kara Kara National Park",
      "country": "Australia",
      "locality": "Victoria, Northern Grampians",
      "featureClass": "park",
      "lat": -36.860416,
      "lng": 143.285141,
      "continent": "Oceania"
    },
    {
      "name": "Karijini National Park",
      "country": "Australia",
      "locality": "Western Australia, Ashburton",
      "featureClass": "park",
      "lat": -22.250556,
      "lng": 117.975556,
      "continent": "Oceania"
    },
    {
      "name": "Karijini National Park",
      "country": "Australia",
      "locality": "Western Australia, Ashburton",
      "featureClass": "park",
      "lat": -22.495984,
      "lng": 118.39718,
      "continent": "Oceania"
    },
    {
      "name": "Karijini National Park",
      "country": "Australia",
      "locality": "Western Australia, Ashburton",
      "featureClass": "nature reserve",
      "lat": -22.61728,
      "lng": 118.3927,
      "continent": "Oceania"
    },
    {
      "name": "Karlamilyi National Park",
      "country": "Australia",
      "locality": "Western Australia, East Pilbara",
      "featureClass": "park",
      "lat": -22.413059,
      "lng": 122.595299,
      "continent": "Oceania"
    },
    {
      "name": "Katherine Gorge (Nitmiluk) National Park",
      "country": "Australia",
      "locality": "Northern Territory, Roper Gulf",
      "featureClass": "nature reserve",
      "lat": -14.3167,
      "lng": 132.5667,
      "continent": "Oceania"
    },
    {
      "name": "Katherine Gorge National Park",
      "country": "Australia",
      "locality": "Northern Territory, Roper Gulf",
      "featureClass": "park",
      "lat": -14.3167,
      "lng": 132.566696,
      "continent": "Oceania"
    },
    {
      "name": "Keep River National Park",
      "country": "Australia",
      "locality": "Northern Territory, Victoria Daly",
      "featureClass": "park",
      "lat": -15.8282,
      "lng": 129.0457,
      "continent": "Oceania"
    },
    {
      "name": "Keepit National Park",
      "country": "Australia",
      "locality": "New South Wales, Gunnedah",
      "featureClass": "park",
      "lat": -30.8985,
      "lng": 150.501205,
      "continent": "Oceania"
    },
    {
      "name": "Kellidie Bay National Park",
      "country": "Australia",
      "locality": "South Australia, Lower Eyre Peninsula",
      "featureClass": "park",
      "lat": -34.608871,
      "lng": 135.532227,
      "continent": "Oceania"
    },
    {
      "name": "Kent Group National Park",
      "country": "Australia",
      "locality": "Tasmania, Flinders",
      "featureClass": "park",
      "lat": -39.470001,
      "lng": 147.279999,
      "continent": "Oceania"
    },
    {
      "name": "Keppel Bay Islands National Park",
      "country": "Australia",
      "locality": "Queensland, Livingstone",
      "featureClass": "park",
      "lat": -23.17587,
      "lng": 150.94786,
      "continent": "Oceania"
    },
    {
      "name": "Keppel Bay Islands National Park",
      "country": "Australia",
      "locality": "Queensland, Livingstone",
      "featureClass": "park",
      "lat": -23.159809,
      "lng": 151.073013,
      "continent": "Oceania"
    },
    {
      "name": "Keppel Bay Islands National Park (Scientific)",
      "country": "Australia",
      "locality": "Queensland, Livingstone",
      "featureClass": "nature reserve",
      "lat": -23.15981,
      "lng": 151.073015,
      "continent": "Oceania"
    },
    {
      "name": "Keverstone National Park",
      "country": "Australia",
      "locality": "New South Wales, Upper Lachlan Shire",
      "featureClass": "park",
      "lat": -34.098499,
      "lng": 149.201202,
      "continent": "Oceania"
    },
    {
      "name": "Kinchega National Park",
      "country": "Australia",
      "locality": "New South Wales, Central Darling",
      "featureClass": "park",
      "lat": -32.498501,
      "lng": 142.334595,
      "continent": "Oceania"
    },
    {
      "name": "Kinglake National Park",
      "country": "Australia",
      "locality": "Victoria, Shire of Nillumbik",
      "featureClass": "park",
      "lat": -37.573471,
      "lng": 145.342087,
      "continent": "Oceania"
    },
    {
      "name": "Kings Plains National Park",
      "country": "Australia",
      "locality": "New South Wales, Inverell",
      "featureClass": "park",
      "lat": -29.565201,
      "lng": 151.334595,
      "continent": "Oceania"
    },
    {
      "name": "Kinrara National Park",
      "country": "Australia",
      "locality": "Queensland, Tablelands",
      "featureClass": "park",
      "lat": -18.449299,
      "lng": 144.948624,
      "continent": "Oceania"
    },
    {
      "name": "Kirrama National Park",
      "country": "Australia",
      "locality": "Queensland, Tablelands",
      "featureClass": "park",
      "lat": -18.148333,
      "lng": 145.687775,
      "continent": "Oceania"
    },
    {
      "name": "Kirrama National Park",
      "country": "Australia",
      "locality": "Queensland, Tablelands",
      "featureClass": "park",
      "lat": -18.051111,
      "lng": 145.645828,
      "continent": "Oceania"
    },
    {
      "name": "Kirrama National Park (Recovery)",
      "country": "Australia",
      "locality": "Queensland, Tablelands",
      "featureClass": "nature reserve",
      "lat": -18.051111,
      "lng": 145.645828,
      "continent": "Oceania"
    },
    {
      "name": "Koala Bushland National Park",
      "country": "Australia",
      "locality": "Queensland, Redland",
      "featureClass": "park",
      "lat": -27.630068,
      "lng": 153.198563,
      "continent": "Oceania"
    },
    {
      "name": "Kondalilla National Park",
      "country": "Australia",
      "locality": "Queensland, Sunshine Coast",
      "featureClass": "park",
      "lat": -26.674444,
      "lng": 152.834717,
      "continent": "Oceania"
    },
    {
      "name": "Korung National Park",
      "country": "Australia",
      "locality": "Western Australia, Kalamunda",
      "featureClass": "park",
      "lat": -32.05806,
      "lng": 116.105598,
      "continent": "Oceania"
    },
    {
      "name": "Kosciusko National Park",
      "country": "Australia",
      "locality": "New South Wales, Snowy Monaro Regional",
      "featureClass": "populated place",
      "lat": -36.50512,
      "lng": 148.30324,
      "continent": "Oceania"
    },
    {
      "name": "Kosciuszko National Park",
      "country": "Australia",
      "locality": "New South Wales, Snowy Valleys",
      "featureClass": "park",
      "lat": -35.998501,
      "lng": 148.334595,
      "continent": "Oceania"
    },
    {
      "name": "Kosciuszko National Park",
      "country": "Australia",
      "locality": "New South Wales, Snowy Monaro Regional",
      "featureClass": "park",
      "lat": -36.49936,
      "lng": 148.26638,
      "continent": "Oceania"
    },
    {
      "name": "Kroombit Tops National Park",
      "country": "Australia",
      "locality": "Queensland, Gladstone",
      "featureClass": "park",
      "lat": -24.371111,
      "lng": 150.92778,
      "continent": "Oceania"
    },
    {
      "name": "Ku-ring-gai Chase National Park",
      "country": "Australia",
      "locality": "New South Wales",
      "featureClass": "park",
      "lat": -33.6152,
      "lng": 151.201202,
      "continent": "Oceania"
    },
    {
      "name": "Kuranda National Park",
      "country": "Australia",
      "locality": "Queensland, Mareeba",
      "featureClass": "park",
      "lat": -16.69972,
      "lng": 145.549179,
      "continent": "Oceania"
    },
    {
      "name": "Kuranda National Park",
      "country": "Australia",
      "locality": "Queensland, Mareeba",
      "featureClass": "park",
      "lat": -16.656111,
      "lng": 145.474991,
      "continent": "Oceania"
    },
    {
      "name": "Kuranda National Park (Recovery)",
      "country": "Australia",
      "locality": "Queensland, Mareeba",
      "featureClass": "nature reserve",
      "lat": -16.656111,
      "lng": 145.474991,
      "continent": "Oceania"
    },
    {
      "name": "Kurrimine Beach National Park",
      "country": "Australia",
      "locality": "Queensland, Cassowary Coast",
      "featureClass": "park",
      "lat": -17.72725,
      "lng": 146.09749,
      "continent": "Oceania"
    },
    {
      "name": "Kwiambal National Park",
      "country": "Australia",
      "locality": "New South Wales, Inverell",
      "featureClass": "park",
      "lat": -29.1546,
      "lng": 150.981796,
      "continent": "Oceania"
    },
    {
      "name": "Lake Bindegolly National Park",
      "country": "Australia",
      "locality": "Queensland, Bulloo",
      "featureClass": "park",
      "lat": -28.008741,
      "lng": 144.193985,
      "continent": "Oceania"
    },
    {
      "name": "Lake Eyre National Park",
      "country": "Australia",
      "locality": "South Australia",
      "featureClass": "park",
      "lat": -28.37022,
      "lng": 137.380905,
      "continent": "Oceania"
    },
    {
      "name": "Lake Eyre National Park",
      "country": "Australia",
      "locality": "South Australia",
      "featureClass": "park",
      "lat": -28.29954,
      "lng": 137.60651,
      "continent": "Oceania"
    },
    {
      "name": "Lake Gairdner National Park",
      "country": "Australia",
      "locality": "South Australia",
      "featureClass": "park",
      "lat": -31.58832,
      "lng": 135.988281,
      "continent": "Oceania"
    },
    {
      "name": "Lake Gilles National Park",
      "country": "Australia",
      "locality": "South Australia",
      "featureClass": "park",
      "lat": -33.014309,
      "lng": 136.726486,
      "continent": "Oceania"
    },
    {
      "name": "Lake Glenbawn National Park",
      "country": "Australia",
      "locality": "New South Wales, Upper Hunter Shire",
      "featureClass": "park",
      "lat": -32.098499,
      "lng": 151.001205,
      "continent": "Oceania"
    },
    {
      "name": "Lake Pedder National Park",
      "country": "Australia",
      "locality": "Tasmania, Derwent Valley",
      "featureClass": "park",
      "lat": -42.950001,
      "lng": 146.160004,
      "continent": "Oceania"
    },
    {
      "name": "Lake Torrens National Park",
      "country": "Australia",
      "locality": "South Australia",
      "featureClass": "park",
      "lat": -30.99316,
      "lng": 137.859055,
      "continent": "Oceania"
    },
    {
      "name": "Lakefield National Park",
      "country": "Australia",
      "locality": "Queensland, Cook Shire",
      "featureClass": "park",
      "lat": -14.924976,
      "lng": 144.181892,
      "continent": "Oceania"
    },
    {
      "name": "Lakefield National Park",
      "country": "Australia",
      "locality": "Queensland, Cook Shire",
      "featureClass": "nature reserve",
      "lat": -15.081812,
      "lng": 144.136108,
      "continent": "Oceania"
    },
    {
      "name": "Lama Lama National Park",
      "country": "Australia",
      "locality": "Queensland, Cook Shire",
      "featureClass": "park",
      "lat": -14.394595,
      "lng": 143.58667,
      "continent": "Oceania"
    },
    {
      "name": "Lamington National Park",
      "country": "Australia",
      "locality": "Queensland, Scenic Rim",
      "featureClass": "park",
      "lat": -28.295745,
      "lng": 153.099171,
      "continent": "Oceania"
    },
    {
      "name": "Lamington National Park Road",
      "country": "Australia",
      "locality": "Queensland",
      "featureClass": "road",
      "lat": -28.231458,
      "lng": 153.137892,
      "continent": "Oceania"
    },
    {
      "name": "Lane Cove National Park",
      "country": "Australia",
      "locality": "New South Wales, Ku-ring-gai Council",
      "featureClass": "park",
      "lat": -33.781799,
      "lng": 151.151199,
      "continent": "Oceania"
    },
    {
      "name": "Lawley River National Park",
      "country": "Australia",
      "locality": "Western Australia, Wyndham-East Kimberley",
      "featureClass": "park",
      "lat": -14.68851,
      "lng": 125.89881,
      "continent": "Oceania"
    },
    {
      "name": "Leeuwin National Park",
      "country": "Australia",
      "locality": "Western Australia, Augusta-Margaret River Shire",
      "featureClass": "park",
      "lat": -34.35582,
      "lng": 115.144394,
      "continent": "Oceania"
    },
    {
      "name": "Leeuwin-Naturaliste National Park",
      "country": "Australia",
      "locality": "Western Australia, Augusta-Margaret River Shire",
      "featureClass": "park",
      "lat": -34.132149,
      "lng": 115.034897,
      "continent": "Oceania"
    },
    {
      "name": "Lesueur National Park",
      "country": "Australia",
      "locality": "Western Australia, Dandaragan",
      "featureClass": "park",
      "lat": -30.13155,
      "lng": 115.132599,
      "continent": "Oceania"
    },
    {
      "name": "Lincoln National Park",
      "country": "Australia",
      "locality": "South Australia, Lower Eyre Peninsula",
      "featureClass": "park",
      "lat": -34.86678,
      "lng": 135.93452,
      "continent": "Oceania"
    },
    {
      "name": "Lind National Park",
      "country": "Australia",
      "locality": "Victoria, East Gippsland",
      "featureClass": "park",
      "lat": -37.575695,
      "lng": 148.953476,
      "continent": "Oceania"
    },
    {
      "name": "Lindeman Islands National Park",
      "country": "Australia",
      "locality": "Queensland, Mackay",
      "featureClass": "park",
      "lat": -20.473713,
      "lng": 149.084137,
      "continent": "Oceania"
    },
    {
      "name": "Litchfield National Park",
      "country": "Australia",
      "locality": "Northern Territory",
      "featureClass": "park",
      "lat": -13.293538,
      "lng": 130.844199,
      "continent": "Oceania"
    },
    {
      "name": "Littabella National Park",
      "country": "Australia",
      "locality": "Queensland, Bundaberg",
      "featureClass": "park",
      "lat": -24.600361,
      "lng": 152.069382,
      "continent": "Oceania"
    },
    {
      "name": "Little Desert National Park",
      "country": "Australia",
      "locality": "Victoria, West Wimmera",
      "featureClass": "park",
      "lat": -36.51402,
      "lng": 141.99829,
      "continent": "Oceania"
    },
    {
      "name": "Little Desert National Park",
      "country": "Australia",
      "locality": "Victoria, Hindmarsh",
      "featureClass": "park",
      "lat": -36.544029,
      "lng": 141.840424,
      "continent": "Oceania"
    },
    {
      "name": "Lizard Island National Park",
      "country": "Australia",
      "locality": "Queensland, Cook Shire",
      "featureClass": "park",
      "lat": -14.66763,
      "lng": 145.46173,
      "continent": "Oceania"
    },
    {
      "name": "Lochern National Park",
      "country": "Australia",
      "locality": "Queensland, Longreach",
      "featureClass": "park",
      "lat": -24.073467,
      "lng": 143.307282,
      "continent": "Oceania"
    },